{
"type": "FeatureCollection",
"name": "torres",
"crs": { "type": "name", "properties": { "name": "urn:ogc:def:crs:OGC:1.3:CRS84" } },
"features": [
{ "type": "Feature", "properties": { "name": "PASSOS", "ALTURA": "60", "LATITUDE": "-20.664122", "LONGITUDE": "-46.571097", "Nº DE PATRIMÔNIO": "53149912", "PROPRIEDADE": "PMMG", "REFERENCIA": "Usina Itaiquara", "RPM": "18 RPM", "TIPO COORDENADA": "EXATA", "TIPO DA TORRE": "Autoportante", "UEOP": "12º BPM" }, "geometry": { "type": "Point", "coordinates": [ -46.571097, -20.664122, 0.0 ] } },
{ "type": "Feature", "properties": { "name": "FRUTAL", "ALTURA": "60", "LATITUDE": "-20.024583", "LONGITUDE": "-48.883222", "Nº DE PATRIMÔNIO": "53149920", "PROPRIEDADE": "PMMG", "REFERENCIA": "Fazenda São Bento da Ressaca", "RPM": "5 RPM", "TIPO COORDENADA": "EXATA", "TIPO DA TORRE": "Autoportante", "UEOP": "4ª Cia PM Ind" }, "geometry": { "type": "Point", "coordinates": [ -48.883222, -20.024583, 0.0 ] } },
{ "type": "Feature", "properties": { "name": "SETE LAGOAS", "ALTURA": "60", "LATITUDE": "-19.447936", "LONGITUDE": "-44.271094", "Nº DE PATRIMÔNIO": "53149947", "PROPRIEDADE": "PMMG", "REFERENCIA": "Morro Santa Helena", "RPM": "19 RPM", "TIPO COORDENADA": "EXATA", "TIPO DA TORRE": "Autoportante", "UEOP": "25º BPM" }, "geometry": { "type": "Point", "coordinates": [ -44.271094, -19.447936, 0.0 ] } },
{ "type": "Feature", "properties": { "name": "S. GOTARDO", "ALTURA": "60", "LATITUDE": "-19.351511", "LONGITUDE": "-46.090717", "Nº DE PATRIMÔNIO": "53149955", "PROPRIEDADE": "PMMG", "REFERENCIA": "Rodovia MG 235 - KM 89", "RPM": "10 RPM", "TIPO COORDENADA": "EXATA", "TIPO DA TORRE": "Autoportante", "UEOP": "15º BPM" }, "geometry": { "type": "Point", "coordinates": [ -46.090717, -19.351511, 0.0 ] } },
{ "type": "Feature", "properties": { "name": "S.S. PARAÍSO", "ALTURA": "60", "LATITUDE": "-20.932347", "LONGITUDE": "-47.011283", "Nº DE PATRIMÔNIO": "53149963", "PROPRIEDADE": "PMMG", "REFERENCIA": "Fazenda Ressaca", "RPM": "18 RPM", "TIPO COORDENADA": "EXATA", "TIPO DA TORRE": "Autoportante", "UEOP": "43º BPM" }, "geometry": { "type": "Point", "coordinates": [ -47.011283, -20.932347, 0.0 ] } },
{ "type": "Feature", "properties": { "name": "UBERABA", "ALTURA": "60", "LATITUDE": "-19.767281", "LONGITUDE": "-47.922011", "Nº DE PATRIMÔNIO": "53149939", "PROPRIEDADE": "PMMG", "REFERENCIA": "Sede da AISP", "RPM": "5 RPM", "TIPO COORDENADA": "EXATA", "TIPO DA TORRE": "Autoportante", "UEOP": "4º BPM" }, "geometry": { "type": "Point", "coordinates": [ -47.922011, -19.767281, 0.0 ] } },
{ "type": "Feature", "properties": { "name": "ITAGUARA", "ALTURA": "40", "LATITUDE": "-20.332369", "LONGITUDE": "-44.462747", "Nº DE PATRIMÔNIO": "53149971", "PROPRIEDADE": "PMMG", "REFERENCIA": "Morro do Gentio", "RPM": "2 RPM", "TIPO COORDENADA": "EXATA", "TIPO DA TORRE": "Autoportante", "UEOP": "7ª Cia PM Ind" }, "geometry": { "type": "Point", "coordinates": [ -44.462747, -20.332369, 0.0 ] } },
{ "type": "Feature", "properties": { "name": "BARBACENA", "ALTURA": "60", "LATITUDE": "-21.233372", "LONGITUDE": "-43.797225", "Nº DE PATRIMÔNIO": "55767133", "PROPRIEDADE": "PMMG", "REFERENCIA": "Morro Monte Mário", "RPM": "13 RPM", "TIPO COORDENADA": "EXATA", "TIPO DA TORRE": "Autoportante", "UEOP": "9º BPM" }, "geometry": { "type": "Point", "coordinates": [ -43.797225, -21.233372, 0.0 ] } },
{ "type": "Feature", "properties": { "name": "IGARAPÉ", "ALTURA": "60", "LATITUDE": "-20.113147", "LONGITUDE": "-44.295419", "Nº DE PATRIMÔNIO": "55758550", "PROPRIEDADE": "PMMG", "REFERENCIA": "Serra do Igarapé", "RPM": "2 RPM", "TIPO COORDENADA": "EXATA", "TIPO DA TORRE": "Autoportante", "UEOP": "7ª Cia PM Ind" }, "geometry": { "type": "Point", "coordinates": [ -44.295419, -20.113147, 0.0 ] } },
{ "type": "Feature", "properties": { "name": "PEDRA DO INDAIÁ", "ALTURA": "40", "LATITUDE": "-20.323444", "LONGITUDE": "-45.285994", "Nº DE PATRIMÔNIO": "55758320", "PROPRIEDADE": "PMMG", "REFERENCIA": "Betânia", "RPM": "7 RPM", "TIPO COORDENADA": "EXATA", "TIPO DA TORRE": "Autoportante", "UEOP": "7º BPM" }, "geometry": { "type": "Point", "coordinates": [ -45.285994, -20.323444, 0.0 ] } },
{ "type": "Feature", "properties": { "name": "FORMIGA", "ALTURA": "40", "LATITUDE": "-20.504619", "LONGITUDE": "-45.371311", "Nº DE PATRIMÔNIO": "55768598", "PROPRIEDADE": "PMMG", "REFERENCIA": "Morro do Peão", "RPM": "7 RPM", "TIPO COORDENADA": "EXATA", "TIPO DA TORRE": "Autoportante", "UEOP": "63º BPM" }, "geometry": { "type": "Point", "coordinates": [ -45.371311, -20.504619, 0.0 ] } },
{ "type": "Feature", "properties": { "name": "SERRA DO SALITRE", "ALTURA": "40", "LATITUDE": "-19.117797", "LONGITUDE": "-46.682242", "Nº DE PATRIMÔNIO": "55759521", "PROPRIEDADE": "PMMG", "REFERENCIA": "Chácara Lava Pés", "RPM": "10 RPM", "TIPO COORDENADA": "EXATA", "TIPO DA TORRE": "Autoportante", "UEOP": "46º BPM" }, "geometry": { "type": "Point", "coordinates": [ -46.682242, -19.117797, 0.0 ] } },
{ "type": "Feature", "properties": { "name": "PATOS DE MINAS", "ALTURA": "60", "LATITUDE": "-18.590006", "LONGITUDE": "-46.469289", "Nº DE PATRIMÔNIO": "55768601", "PROPRIEDADE": "PMMG", "REFERENCIA": "Fazenda Belvedere", "RPM": "10 RPM", "TIPO COORDENADA": "EXATA", "TIPO DA TORRE": "Autoportante", "UEOP": "15º BPM" }, "geometry": { "type": "Point", "coordinates": [ -46.469289, -18.590006, 0.0 ] } },
{ "type": "Feature", "properties": { "name": "NOVA SERRANA", "ALTURA": "60", "LATITUDE": "-19.861947", "LONGITUDE": "-44.982608", "Nº DE PATRIMÔNIO": "55767141", "PROPRIEDADE": "PMMG", "REFERENCIA": "Bairro Frei Ambrósio", "RPM": "7 RPM", "TIPO COORDENADA": "EXATA", "TIPO DA TORRE": "Autoportante", "UEOP": "60º BPM" }, "geometry": { "type": "Point", "coordinates": [ -44.982608, -19.861947, 0.0 ] } },
{ "type": "Feature", "properties": { "name": "CURVELO", "ALTURA": "60", "LATITUDE": "-18.701514", "LONGITUDE": "-44.416103", "Nº DE PATRIMÔNIO": "55777600", "PROPRIEDADE": "PMMG", "REFERENCIA": "Fazenda do Espigão", "RPM": "14 RPM", "TIPO COORDENADA": "EXATA", "TIPO DA TORRE": "Autoportante", "UEOP": "42º BPM" }, "geometry": { "type": "Point", "coordinates": [ -44.416103, -18.701514, 0.0 ] } },
{ "type": "Feature", "properties": { "name": "ARAGUARI", "ALTURA": "40", "LATITUDE": "-18.663203", "LONGITUDE": "-48.192633", "Nº DE PATRIMÔNIO": "55768610", "PROPRIEDADE": "PMMG", "REFERENCIA": "Sede da Unidade", "RPM": "9 RPM", "TIPO COORDENADA": "EXATA", "TIPO DA TORRE": "Autoportante", "UEOP": "53º BPM" }, "geometry": { "type": "Point", "coordinates": [ -48.192633, -18.663203, 0.0 ] } },
{ "type": "Feature", "properties": { "name": "BOM DESPACHO", "ALTURA": "60", "LATITUDE": "-19.743817", "LONGITUDE": "-45.218436", "Nº DE PATRIMÔNIO": "55758428", "PROPRIEDADE": "PMMG", "REFERENCIA": "Fazenda Prata", "RPM": "7 RPM", "TIPO COORDENADA": "EXATA", "TIPO DA TORRE": "Autoportante", "UEOP": "7º BPM" }, "geometry": { "type": "Point", "coordinates": [ -45.218436, -19.743817, 0.0 ] } },
{ "type": "Feature", "properties": { "name": "TEÓFILO OTONI", "ALTURA": "40", "LATITUDE": "-17.849756", "LONGITUDE": "-41.524361", "Nº DE PATRIMÔNIO": "55777619", "PROPRIEDADE": "PMMG", "REFERENCIA": "Estância Coelmig", "RPM": "15 RPM", "TIPO COORDENADA": "EXATA", "TIPO DA TORRE": "Autoportante", "UEOP": "19º BPM" }, "geometry": { "type": "Point", "coordinates": [ -41.524361, -17.849756, 0.0 ] } },
{ "type": "Feature", "properties": { "name": "CAPITÓLIO (SEDE)", "ALTURA": "60", "LATITUDE": "-20.659075", "LONGITUDE": "-46.032783", "Nº DE PATRIMÔNIO": "30461235", "PROPRIEDADE": "PMMG", "REFERENCIA": "Morro do Chapéu", "RPM": "18 RPM", "TIPO COORDENADA": "EXATA", "TIPO DA TORRE": "Autoportante", "UEOP": "12º BPM" }, "geometry": { "type": "Point", "coordinates": [ -46.032783, -20.659075, 0.0 ] } },
{ "type": "Feature", "properties": { "name": "PIUMHI (SEDE)", "ALTURA": "60", "LATITUDE": "-20.441656", "LONGITUDE": "-45.898731", "Nº DE PATRIMÔNIO": "30461243", "PROPRIEDADE": "PMMG", "REFERENCIA": "Serra da Pimenta", "RPM": "18 RPM", "TIPO COORDENADA": "EXATA", "TIPO DA TORRE": "Autoportante", "UEOP": "12º BPM" }, "geometry": { "type": "Point", "coordinates": [ -45.898731, -20.441656, 0.0 ] } },
{ "type": "Feature", "properties": { "name": "UNAÍ", "ALTURA": "B60", "LATITUDE": "-16.386781", "LONGITUDE": "-47.065850", "Nº DE PATRIMÔNIO": "56111690", "PROPRIEDADE": "PMMG", "REFERENCIA": "Bela Vista", "RPM": "16 RPM", "TIPO COORDENADA": "EXATA", "TIPO DA TORRE": "Autoportante", "UEOP": "28º BPM" }, "geometry": { "type": "Point", "coordinates": [ -47.06585, -16.386781, 0.0 ] } },
{ "type": "Feature", "properties": { "name": "MONTES CLAROS", "ALTURA": "B60", "LATITUDE": "-16.792856", "LONGITUDE": "-43.854461", "Nº DE PATRIMÔNIO": "56106319", "PROPRIEDADE": "PMMG", "REFERENCIA": "Fazenda Texas", "RPM": "11 RPM", "TIPO COORDENADA": "EXATA", "TIPO DA TORRE": "Autoportante", "UEOP": "10º BPM" }, "geometry": { "type": "Point", "coordinates": [ -43.854461, -16.792856, 0.0 ] } },
{ "type": "Feature", "properties": { "name": "RIBEIRÃO DAS NEVES", "ALTURA": "B60", "LATITUDE": "-19.734450", "LONGITUDE": "-44.138222", "Nº DE PATRIMÔNIO": "56106297", "PROPRIEDADE": "PMMG", "REFERENCIA": "Empresa Egesa", "RPM": "2 RPM", "TIPO COORDENADA": "EXATA", "TIPO DA TORRE": "Autoportante", "UEOP": "40º BPM" }, "geometry": { "type": "Point", "coordinates": [ -44.138222, -19.73445, 0.0 ] } },
{ "type": "Feature", "properties": { "name": "GOVERNADOR VALADARES", "ALTURA": "C60", "LATITUDE": "-18.885542", "LONGITUDE": "-41.918206", "Nº DE PATRIMÔNIO": "56111711", "PROPRIEDADE": "PMMG", "REFERENCIA": "Pico do Ibituruna", "RPM": "8 RPM", "TIPO COORDENADA": "EXATA", "TIPO DA TORRE": "Autoportante", "UEOP": "6º BPM" }, "geometry": { "type": "Point", "coordinates": [ -41.918206, -18.885542, 0.0 ] } },
{ "type": "Feature", "properties": { "name": "POUSO ALEGRE", "ALTURA": "C60", "LATITUDE": "-22.221719", "LONGITUDE": "-45.984158", "Nº DE PATRIMÔNIO": "56106300", "PROPRIEDADE": "PMMG", "REFERENCIA": "Cachoeirinha", "RPM": "17 RPM", "TIPO COORDENADA": "EXATA", "TIPO DA TORRE": "Autoportante", "UEOP": "20º BPM" }, "geometry": { "type": "Point", "coordinates": [ -45.984158, -22.221719, 0.0 ] } },
{ "type": "Feature", "properties": { "name": "DIVINÓPOLIS", "ALTURA": "B60", "LATITUDE": "-20.148072", "LONGITUDE": "-44.861694", "Nº DE PATRIMÔNIO": "55778135", "PROPRIEDADE": "PMMG", "REFERENCIA": "Morro das Antenas", "RPM": "7 RPM", "TIPO COORDENADA": "EXATA", "TIPO DA TORRE": "Autoportante", "UEOP": "23º BPM" }, "geometry": { "type": "Point", "coordinates": [ -44.861694, -20.148072, 0.0 ] } },
{ "type": "Feature", "properties": { "name": "ITAUNA", "ALTURA": "C60", "LATITUDE": "-20.055536", "LONGITUDE": "-44.581739", "Nº DE PATRIMÔNIO": "55778151", "PROPRIEDADE": "PMMG", "REFERENCIA": "Alto do Bonfim", "RPM": "7 RPM", "TIPO COORDENADA": "EXATA", "TIPO DA TORRE": "Autoportante", "UEOP": "23º BPM" }, "geometry": { "type": "Point", "coordinates": [ -44.581739, -20.055536, 0.0 ] } },
{ "type": "Feature", "properties": { "name": "MATEUS LEME", "ALTURA": "C60", "LATITUDE": "-19.956797", "LONGITUDE": "-44.425322", "Nº DE PATRIMÔNIO": "55778143", "PROPRIEDADE": "PMMG", "REFERENCIA": "Morro do Elefante", "RPM": "2 RPM", "TIPO COORDENADA": "EXATA", "TIPO DA TORRE": "Autoportante", "UEOP": "7ª Cia PM Ind" }, "geometry": { "type": "Point", "coordinates": [ -44.425322, -19.956797, 0.0 ] } },
{ "type": "Feature", "properties": { "name": "ITURAMA", "ALTURA": "A60", "LATITUDE": "-19.702597", "LONGITUDE": "-50.184419", "Nº DE PATRIMÔNIO": "56111401", "PROPRIEDADE": "PMMG", "REFERENCIA": "Fazenda Olhos D'água", "RPM": "5 RPM", "TIPO COORDENADA": "EXATA", "TIPO DA TORRE": "Autoportante", "UEOP": "3ª Cia PM Ind" }, "geometry": { "type": "Point", "coordinates": [ -50.184419, -19.702597, 0.0 ] } },
{ "type": "Feature", "properties": { "name": "OURO BRANCO", "ALTURA": "C60", "LATITUDE": "-20.493381", "LONGITUDE": "-43.711228", "Nº DE PATRIMÔNIO": "56106327", "PROPRIEDADE": "PMMG", "REFERENCIA": "Serra de Ouro Branco", "RPM": "13 RPM", "TIPO COORDENADA": "EXATA", "TIPO DA TORRE": "Autoportante", "UEOP": "31º BPM" }, "geometry": { "type": "Point", "coordinates": [ -43.711228, -20.493381, 0.0 ] } },
{ "type": "Feature", "properties": { "name": "SANTANA DO RIACHO", "ALTURA": "B60", "LATITUDE": "-19.293578", "LONGITUDE": "-43.599736", "Nº DE PATRIMÔNIO": "56106270", "PROPRIEDADE": "PMMG", "REFERENCIA": "Serra do Cipó", "RPM": "3 RPM", "TIPO COORDENADA": "EXATA", "TIPO DA TORRE": "Autoportante", "UEOP": "35º BPM" }, "geometry": { "type": "Point", "coordinates": [ -43.599736, -19.293578, 0.0 ] } },
{ "type": "Feature", "properties": { "name": "MARIANA", "ALTURA": "C60", "LATITUDE": "-20.400678", "LONGITUDE": "-43.390606", "Nº DE PATRIMÔNIO": "56106343", "PROPRIEDADE": "PMMG", "REFERENCIA": "Pico da Cartuxa", "RPM": "3 RPM", "TIPO COORDENADA": "EXATA", "TIPO DA TORRE": "Autoportante", "UEOP": "52º BPM" }, "geometry": { "type": "Point", "coordinates": [ -43.390606, -20.400678, 0.0 ] } },
{ "type": "Feature", "properties": { "name": "BELO HORIZONTE", "ALTURA": "C60", "LATITUDE": "-19.946733", "LONGITUDE": "-43.893042", "Nº DE PATRIMÔNIO": "55778160", "PROPRIEDADE": "PMMG", "REFERENCIA": "(Centelha I)", "RPM": "1 RPM", "TIPO COORDENADA": "EXATA", "TIPO DA TORRE": "Autoportante", "UEOP": "CTT" }, "geometry": { "type": "Point", "coordinates": [ -43.893042, -19.946733, 0.0 ] } },
{ "type": "Feature", "properties": { "name": "PATROCÍNIO", "ALTURA": "B60", "LATITUDE": "-18.915019", "LONGITUDE": "-47.005036", "Nº DE PATRIMÔNIO": "56106289", "PROPRIEDADE": "PMMG", "REFERENCIA": "Morro do Cristo", "RPM": "10 RPM", "TIPO COORDENADA": "EXATA", "TIPO DA TORRE": "Autoportante", "UEOP": "46º BPM" }, "geometry": { "type": "Point", "coordinates": [ -47.005036, -18.915019, 0.0 ] } },
{ "type": "Feature", "properties": { "name": "LAVRAS", "ALTURA": "C60", "LATITUDE": "-21.325081", "LONGITUDE": "-45.011544", "Nº DE PATRIMÔNIO": "56106335", "PROPRIEDADE": "PMMG", "REFERENCIA": "Serra da Bocaina", "RPM": "6 RPM", "TIPO COORDENADA": "EXATA", "TIPO DA TORRE": "Autoportante", "UEOP": "8º BPM" }, "geometry": { "type": "Point", "coordinates": [ -45.011544, -21.325081, 0.0 ] } },
{ "type": "Feature", "properties": { "name": "SÃO JOÃO DEL REI", "ALTURA": "C60", "LATITUDE": "-21.156081", "LONGITUDE": "-44.305042", "Nº DE PATRIMÔNIO": "55782515", "PROPRIEDADE": "PMMG", "REFERENCIA": "Morro do Cascalho", "RPM": "13 RPM", "TIPO COORDENADA": "EXATA", "TIPO DA TORRE": "Autoportante", "UEOP": "38º BPM" }, "geometry": { "type": "Point", "coordinates": [ -44.305042, -21.156081, 0.0 ] } },
{ "type": "Feature", "properties": { "name": "JUIZ DE FORA", "ALTURA": "C60", "LATITUDE": "-21.744106", "LONGITUDE": "-43.326883", "Nº DE PATRIMÔNIO": "55898106", "PROPRIEDADE": "PMMG", "REFERENCIA": "Bairro São Benedito", "RPM": "4 RPM", "TIPO COORDENADA": "EXATA", "TIPO DA TORRE": "Autoportante", "UEOP": "2º BPM" }, "geometry": { "type": "Point", "coordinates": [ -43.326883, -21.744106, 0.0 ] } },
{ "type": "Feature", "properties": { "name": "MURIAÉ", "ALTURA": "C60", "LATITUDE": "-21.091981", "LONGITUDE": "-42.501294", "Nº DE PATRIMÔNIO": "55899943", "PROPRIEDADE": "PMMG", "REFERENCIA": "Fazenda Puri", "RPM": "4 RPM", "TIPO COORDENADA": "EXATA", "TIPO DA TORRE": "Autoportante", "UEOP": "47º BPM" }, "geometry": { "type": "Point", "coordinates": [ -42.501294, -21.091981, 0.0 ] } },
{ "type": "Feature", "properties": { "name": "MANHUAÇU", "ALTURA": "C60", "LATITUDE": "-20.252083", "LONGITUDE": "-42.043694", "Nº DE PATRIMÔNIO": "55899951", "PROPRIEDADE": "PMMG", "REFERENCIA": "Alto da Petrina", "RPM": "12 RPM", "TIPO COORDENADA": "EXATA", "TIPO DA TORRE": "Autoportante", "UEOP": "11º BPM" }, "geometry": { "type": "Point", "coordinates": [ -42.043694, -20.252083, 0.0 ] } },
{ "type": "Feature", "properties": { "name": "PONTE NOVA", "ALTURA": "B40", "LATITUDE": "-20.428317", "LONGITUDE": "-42.904989", "Nº DE PATRIMÔNIO": "55916473", "PROPRIEDADE": "PMMG", "REFERENCIA": "Bairro Rosário", "RPM": "12 RPM", "TIPO COORDENADA": "EXATA", "TIPO DA TORRE": "Autoportante", "UEOP": "21ª Cia PM Ind" }, "geometry": { "type": "Point", "coordinates": [ -42.904989, -20.428317, 0.0 ] } },
{ "type": "Feature", "properties": { "name": "BETIM", "ALTURA": "B60", "LATITUDE": "-19.880625", "LONGITUDE": "-44.243519", "Nº DE PATRIMÔNIO": "55900062", "PROPRIEDADE": "PMMG", "REFERENCIA": "Fazenda do Angico", "RPM": "2 RPM", "TIPO COORDENADA": "EXATA", "TIPO DA TORRE": "Autoportante", "UEOP": "66º BPM" }, "geometry": { "type": "Point", "coordinates": [ -44.243519, -19.880625, 0.0 ] } },
{ "type": "Feature", "properties": { "name": "ITACARAMBI", "ALTURA": "A60", "LATITUDE": "-15.049981", "LONGITUDE": "-44.181806", "Nº DE PATRIMÔNIO": "55932452", "PROPRIEDADE": "PMMG", "REFERENCIA": "Fazenda Jacarezinho", "RPM": "11 RPM", "TIPO COORDENADA": "EXATA", "TIPO DA TORRE": "Autoportante", "UEOP": "30º BPM" }, "geometry": { "type": "Point", "coordinates": [ -44.181806, -15.049981, 0.0 ] } },
{ "type": "Feature", "properties": { "name": "TAIOBEIRAS", "ALTURA": "A60", "LATITUDE": "-15.812500", "LONGITUDE": "-42.275000", "Nº DE PATRIMÔNIO": "55932460", "PROPRIEDADE": "PMMG", "REFERENCIA": "Fazenda Ilha", "RPM": "11 RPM", "TIPO COORDENADA": "EXATA", "TIPO DA TORRE": "Autoportante", "UEOP": "2ª Cia PM Ind" }, "geometry": { "type": "Point", "coordinates": [ -42.275, -15.8125, 0.0 ] } },
{ "type": "Feature", "properties": { "name": "TAQUARAÇU DE MINAS", "ALTURA": "A60", "LATITUDE": "-19.554089", "LONGITUDE": "-43.755189", "Nº DE PATRIMÔNIO": "55900232", "PROPRIEDADE": "PMMG", "REFERENCIA": "Portaria Cond. Serra Morena", "RPM": "3 RPM", "TIPO COORDENADA": "EXATA", "TIPO DA TORRE": "Autoportante", "UEOP": "61º BPM" }, "geometry": { "type": "Point", "coordinates": [ -43.755189, -19.554089, 0.0 ] } },
{ "type": "Feature", "properties": { "name": "CORINTO", "ALTURA": "A60", "LATITUDE": "-18.133756", "LONGITUDE": "-44.730592", "Nº DE PATRIMÔNIO": "55900224", "PROPRIEDADE": "PMMG", "REFERENCIA": "Fazenda Muquém", "RPM": "14 RPM", "TIPO COORDENADA": "EXATA", "TIPO DA TORRE": "Autoportante", "UEOP": "42º BPM" }, "geometry": { "type": "Point", "coordinates": [ -44.730592, -18.133756, 0.0 ] } },
{ "type": "Feature", "properties": { "name": "BRUMADINHO", "ALTURA": "B60", "LATITUDE": "-20.160889", "LONGITUDE": "-43.974544", "Nº DE PATRIMÔNIO": "55758428", "PROPRIEDADE": "PMMG", "REFERENCIA": "Mina Pau Branco (VALLOUREC)", "RPM": "2 RPM", "TIPO COORDENADA": "EXATA", "TIPO DA TORRE": "Autoportante", "UEOP": "48º BPM" }, "geometry": { "type": "Point", "coordinates": [ -43.974544, -20.160889, 0.0 ] } },
{ "type": "Feature", "properties": { "name": "PARACATU", "ALTURA": "B60", "LATITUDE": "-17.191117", "LONGITUDE": "-46.926186", "Nº DE PATRIMÔNIO": "55900070", "PROPRIEDADE": "PMMG", "REFERENCIA": "Fazenda Moura e Pecado", "RPM": "16 RPM", "TIPO COORDENADA": "EXATA", "TIPO DA TORRE": "Autoportante", "UEOP": "45º BPM" }, "geometry": { "type": "Point", "coordinates": [ -46.926186, -17.191117, 0.0 ] } },
{ "type": "Feature", "properties": { "name": "OLIVEIRA", "ALTURA": "B60", "LATITUDE": "-20.717244", "LONGITUDE": "-44.777375", "Nº DE PATRIMÔNIO": "55900160", "PROPRIEDADE": "PMMG", "REFERENCIA": "Morro da Mandioca", "RPM": "6 RPM", "TIPO COORDENADA": "EXATA", "TIPO DA TORRE": "Autoportante", "UEOP": "8º BPM" }, "geometry": { "type": "Point", "coordinates": [ -44.777375, -20.717244, 0.0 ] } },
{ "type": "Feature", "properties": { "name": "DIAMANTINA", "ALTURA": "A60", "LATITUDE": "-18.205417", "LONGITUDE": "-43.603317", "Nº DE PATRIMÔNIO": "55900216", "PROPRIEDADE": "PMMG", "REFERENCIA": "Fazenda Serra", "RPM": "14 RPM", "TIPO COORDENADA": "EXATA", "TIPO DA TORRE": "Autoportante", "UEOP": "3º BPM" }, "geometry": { "type": "Point", "coordinates": [ -43.603317, -18.205417, 0.0 ] } },
{ "type": "Feature", "properties": { "name": "PEDRO LEOPOLDO", "ALTURA": "A40", "LATITUDE": "-19.609289", "LONGITUDE": "-44.025128", "Nº DE PATRIMÔNIO": "55916600", "PROPRIEDADE": "PMMG", "REFERENCIA": "Loteamento Central ParK", "RPM": "19 RPM", "TIPO COORDENADA": "EXATA", "TIPO DA TORRE": "Autoportante", "UEOP": "11ª Cia PM Ind" }, "geometry": { "type": "Point", "coordinates": [ -44.025128, -19.609289, 0.0 ] } },
{ "type": "Feature", "properties": { "name": "VARGINHA", "ALTURA": "C40", "LATITUDE": "-21.502167", "LONGITUDE": "-45.438528", "Nº DE PATRIMÔNIO": "55916538", "PROPRIEDADE": "PMMG", "REFERENCIA": "Fazenda da Serra", "RPM": "6 RPM", "TIPO COORDENADA": "EXATA", "TIPO DA TORRE": "Autoportante", "UEOP": "24º BPM" }, "geometry": { "type": "Point", "coordinates": [ -45.438528, -21.502167, 0.0 ] } },
{ "type": "Feature", "properties": { "name": "POÇOS DE CALDAS", "ALTURA": "C60", "LATITUDE": "-21.773533", "LONGITUDE": "-46.570978", "Nº DE PATRIMÔNIO": "55898092", "PROPRIEDADE": "PMMG", "REFERENCIA": "Morro do Cristo", "RPM": "18 RPM", "TIPO COORDENADA": "EXATA", "TIPO DA TORRE": "Autoportante", "UEOP": "29º BPM" }, "geometry": { "type": "Point", "coordinates": [ -46.570978, -21.773533, 0.0 ] } },
{ "type": "Feature", "properties": { "name": "JUIZ DE FORA", "ALTURA": "30 m", "LATITUDE": "-21.653764", "LONGITUDE": "-43.342069", "Nº DE PATRIMÔNIO": "62239759", "PROPRIEDADE": "PMMG", "REFERENCIA": "Fazenda São Bento - Grama", "RPM": "4 RPM", "TIPO COORDENADA": "EXATA", "TIPO DA TORRE": "Autoportante", "UEOP": "2º BPM" }, "geometry": { "type": "Point", "coordinates": [ -43.342069, -21.653764, 0.0 ] } },
{ "type": "Feature", "properties": { "name": "ALMENARA", "ALTURA": "30 m", "LATITUDE": "-16.201778", "LONGITUDE": "-40.674333", "Nº DE PATRIMÔNIO": "62239740", "PROPRIEDADE": "PMMG", "REFERENCIA": "Fazenda Cruzeiro", "RPM": "15 RPM", "TIPO COORDENADA": "EXATA", "TIPO DA TORRE": "Autoportante", "UEOP": "44º BPM" }, "geometry": { "type": "Point", "coordinates": [ -40.674333, -16.201778, 0.0 ] } },
{ "type": "Feature", "properties": { "name": "RESPLENDOR", "ALTURA": "30 m", "LATITUDE": "-19.335450", "LONGITUDE": "-41.320981", "Nº DE PATRIMÔNIO": "62239724", "PROPRIEDADE": "PMMG", "REFERENCIA": "Radio Difusora de Resplendor", "RPM": "8 RPM", "TIPO COORDENADA": "EXATA", "TIPO DA TORRE": "Autoportante", "UEOP": "15ª Cia PM Ind" }, "geometry": { "type": "Point", "coordinates": [ -41.320981, -19.33545, 0.0 ] } },
{ "type": "Feature", "properties": { "name": "PEÇANHA", "ALTURA": "30 m", "LATITUDE": "-18.553217", "LONGITUDE": "-42.552550", "Nº DE PATRIMÔNIO": "62239732", "PROPRIEDADE": "PMMG", "REFERENCIA": "Serra Campo de Aviação", "RPM": "8 RPM", "TIPO COORDENADA": "EXATA", "TIPO DA TORRE": "Autoportante", "UEOP": "25ª Cia PM Ind" }, "geometry": { "type": "Point", "coordinates": [ -42.55255, -18.553217, 0.0 ] } },
{ "type": "Feature", "properties": { "name": "ARAXÁ", "ALTURA": "40 m", "LATITUDE": "-19.576167", "LONGITUDE": "-46.925111", "Nº DE PATRIMÔNIO": "28480023", "PROPRIEDADE": "PMMG", "REFERENCIA": "DENTRO 37º BPM", "RPM": "5 RPM", "TIPO COORDENADA": "EXATA", "TIPO DA TORRE": "Autoportante", "UEOP": "37º BPM" }, "geometry": { "type": "Point", "coordinates": [ -46.925111, -19.576167, 0.0 ] } },
{ "type": "Feature", "properties": { "name": "OURO PRETO", "ALTURA": "35 m", "LATITUDE": "-20.418364", "LONGITUDE": "-43.505436", "Nº DE PATRIMÔNIO": "Não tem patrimônio", "PROPRIEDADE": "PMMG", "REFERENCIA": "MORRO DO CACHORRO", "RPM": "3 RPM", "TIPO COORDENADA": "EXATA", "TIPO DA TORRE": "Autoportante", "UEOP": "52º BPM" }, "geometry": { "type": "Point", "coordinates": [ -43.505436, -20.418364, 0.0 ] } },
{ "type": "Feature", "properties": { "name": "IPATINGA", "ALTURA": "50 m", "LATITUDE": "-19.457500", "LONGITUDE": "-42.544000", "Nº DE PATRIMÔNIO": "30673607", "PROPRIEDADE": "PMMG", "REFERENCIA": "MORRO CARAVELAS", "RPM": "12 RPM", "TIPO COORDENADA": "EXATA", "TIPO DA TORRE": "Autoportante", "UEOP": "14º BPM" }, "geometry": { "type": "Point", "coordinates": [ -42.544, -19.4575, 0.0 ] } },
{ "type": "Feature", "properties": { "name": "IPATINGA", "ALTURA": "25 m", "LATITUDE": "-19.450797", "LONGITUDE": "-42.558417", "Nº DE PATRIMÔNIO": "30672147", "PROPRIEDADE": "PMMG", "REFERENCIA": "DENTRO 14º BPM", "RPM": "12 RPM", "TIPO COORDENADA": "EXATA", "TIPO DA TORRE": "Autoportante", "UEOP": "14º BPM" }, "geometry": { "type": "Point", "coordinates": [ -42.558417, -19.450797, 0.0 ] } },
{ "type": "Feature", "properties": { "name": "UBERLÂNDIA", "ALTURA": "80 m", "LATITUDE": "-18.883667", "LONGITUDE": "-48.253472", "Nº DE PATRIMÔNIO": "25753681", "PROPRIEDADE": "PMMG", "REFERENCIA": "Umuarama", "RPM": "9 RPM", "TIPO COORDENADA": "EXATA", "TIPO DA TORRE": "Autoportante", "UEOP": "17º BPM" }, "geometry": { "type": "Point", "coordinates": [ -48.253472, -18.883667, 0.0 ] } },
{ "type": "Feature", "properties": { "name": "UBERLÂNDIA", "ALTURA": "25 m", "LATITUDE": "-18.955944", "LONGITUDE": "-48.238361", "Nº DE PATRIMÔNIO": "Não tem patrimônio", "PROPRIEDADE": "PMMG", "REFERENCIA": "B. São Jorge", "RPM": "9 RPM", "TIPO COORDENADA": "EXATA", "TIPO DA TORRE": "Autoportante", "UEOP": "17º BPM" }, "geometry": { "type": "Point", "coordinates": [ -48.238361, -18.955944, 0.0 ] } },
{ "type": "Feature", "properties": { "name": "UBERLÂNDIA", "ALTURA": "65 m", "LATITUDE": "-18.910492", "LONGITUDE": "-48.325733", "Nº DE PATRIMÔNIO": "", "PROPRIEDADE": "PMMG", "REFERENCIA": "9ª RISP", "RPM": "9 RPM", "TIPO COORDENADA": "EXATA", "TIPO DA TORRE": "Estaiada", "UEOP": "17º BPM" }, "geometry": { "type": "Point", "coordinates": [ -48.325733, -18.910492, 0.0 ] } },
{ "type": "Feature", "properties": { "name": "CENTELHA I", "ALTURA": "45 m", "LATITUDE": "-19.946856", "LONGITUDE": "-43.893150", "Nº DE PATRIMÔNIO": "Não tem patrimônio", "PROPRIEDADE": "PMMG", "REFERENCIA": "Parque Mangabeiras", "RPM": "1 RPM", "TIPO COORDENADA": "EXATA", "TIPO DA TORRE": "Autoportante", "UEOP": "---" }, "geometry": { "type": "Point", "coordinates": [ -43.89315, -19.946856, 0.0 ] } },
{ "type": "Feature", "properties": { "name": "CENTELHA II", "ALTURA": "25 m", "LATITUDE": "-19.964478", "LONGITUDE": "-43.917981", "Nº DE PATRIMÔNIO": "Não tem patrimônio", "PROPRIEDADE": "PMMG", "REFERENCIA": "Serra do Curral", "RPM": "1 RPM", "TIPO COORDENADA": "EXATA", "TIPO DA TORRE": "Autoportante", "UEOP": "---" }, "geometry": { "type": "Point", "coordinates": [ -43.917981, -19.964478, 0.0 ] } },
{ "type": "Feature", "properties": { "name": "DTS/CTT", "ALTURA": "35 m", "LATITUDE": "-19.936692", "LONGITUDE": "-43.988464", "Nº DE PATRIMÔNIO": "Não tem patrimônio", "PROPRIEDADE": "PMMG", "REFERENCIA": "DTS", "RPM": "1 RPM", "TIPO COORDENADA": "EXATA", "TIPO DA TORRE": "Autoportante", "UEOP": "---" }, "geometry": { "type": "Point", "coordinates": [ -43.988464, -19.936692, 0.0 ] } },
{ "type": "Feature", "properties": { "name": "CARNEIRINHO", "ALTURA": "60 m", "LATITUDE": "-19.689872", "LONGITUDE": "-50.648775", "Nº DE PATRIMÔNIO": "7824173", "PROPRIEDADE": "PMMG", "REFERENCIA": "MGC 497 KM 285", "RPM": "5 RPM", "TIPO COORDENADA": "EXATA", "TIPO DA TORRE": "Estaiada", "UEOP": "3ª Cia PM IND" }, "geometry": { "type": "Point", "coordinates": [ -50.648775, -19.689872, 0.0 ] } },
{ "type": "Feature", "properties": { "name": "CAMPINA VERDE", "ALTURA": "40 m", "LATITUDE": "-19.653611", "LONGITUDE": "-49.380056", "Nº DE PATRIMÔNIO": "Não tem patrimônio", "PROPRIEDADE": "PMMG", "REFERENCIA": "BR 364 KM 124 município de Itapagipe", "RPM": "5 RPM", "TIPO COORDENADA": "EXATA", "TIPO DA TORRE": "Estaiada", "UEOP": "3ª Cia PM IND" }, "geometry": { "type": "Point", "coordinates": [ -49.380056, -19.653611, 0.0 ] } },
{ "type": "Feature", "properties": { "name": "ALFENAS", "ALTURA": "30 m", "LATITUDE": "-21.401117", "LONGITUDE": "-45.948914", "Nº DE PATRIMÔNIO": "Não tem patrimônio", "PROPRIEDADE": "PMMG", "REFERENCIA": "Dentro do 64 BPM", "RPM": "18 RPM", "TIPO COORDENADA": "EXATA", "TIPO DA TORRE": "Autoportante", "UEOP": "64 BPM" }, "geometry": { "type": "Point", "coordinates": [ -45.948914, -21.401117, 0.0 ] } },
{ "type": "Feature", "properties": { "name": "DTS", "ALTURA": "90 m", "LATITUDE": "-19.935342", "LONGITUDE": "-43.989869", "Nº DE PATRIMÔNIO": "SESP", "PROPRIEDADE": "PMMG", "REFERENCIA": "GAMELEIRA", "RPM": "DTS", "TIPO COORDENADA": "EXATA", "TIPO DA TORRE": "Autoportante", "UEOP": "CICC" }, "geometry": { "type": "Point", "coordinates": [ -43.989869, -19.935342, 0.0 ] } }
]
}
